GLOBAL_POSITION_INT, 1746710933.342065, 59.4288447, 10.4652772, -5.334
LOCAL POSITION, 1746710935203702, 38.071, -34.707, -5.334, 59.4288433, 10.4652743
GLOBAL_POSITION_INT, 1746710936.012053, 59.4288433, 10.4652743, -5.333
LOCAL POSITION, 1746710937720221, 38.168, -34.658, -5.333, 59.4288437, 10.4652760
GLOBAL_POSITION_INT, 1746710938.3420327, 59.4288436, 10.4652751, -5.338
LOCAL POSITION, 1746710940236513, 38.118, -34.704, -5.338, 59.4288433, 10.4652751
GLOBAL_POSITION_INT, 1746710941.0057557, 59.4288436, 10.4652752, -5.335
LOCAL POSITION, 1746710942751235, 37.996, -34.902, -5.335, 59.4288415, 10.4652729
GLOBAL_POSITION_INT, 1746710943.332164, 59.4288421, 10.4652733, -5.334
LOCAL POSITION, 1746710945269705, 38.123, -34.711, -5.334, 59.4288432, 10.4652752
GLOBAL_POSITION_INT, 1746710946.0046673, 59.4288427, 10.4652742, -5.334
LOCAL POSITION, 1746710947786666, 38.083, -34.724, -5.334, 59.4288431, 10.4652745
GLOBAL_POSITION_INT, 1746710948.3319676, 59.4288430, 10.4652742, -5.335
LOCAL POSITION, 1746710950299088, 37.917, -34.877, -5.335, 59.4288418, 10.4652716
GLOBAL_POSITION_INT, 1746710950.6620839, 59.4288423, 10.4652724, -5.339
LOCAL POSITION, 1746710952815552, 38.154, -34.500, -5.339, 59.4288451, 10.4652757
GLOBAL_POSITION_INT, 1746710953.322968, 59.4288438, 10.4652737, -5.339
LOCAL POSITION, 1746710955337286, 38.004, -34.692, -5.339, 59.4288434, 10.4652731
GLOBAL_POSITION_INT, 1746710955.9920883, 59.4288440, 10.4652736, -5.339
LOCAL POSITION, 1746710957856885, 37.834, -34.886, -5.339, 59.4288417, 10.4652701
GLOBAL_POSITION_INT, 1746710958.652092, 59.4288420, 10.4652704, -5.335
LOCAL POSITION, 1746710960374356, 37.815, -34.878, -5.335, 59.4288417, 10.4652697
GLOBAL_POSITION_INT, 1746710961.3216715, 59.4288413, 10.4652690, -5.340
LOCAL POSITION, 1746710962888266, 37.896, -34.674, -5.340, 59.4288436, 10.4652712
GLOBAL_POSITION_INT, 1746710963.9818368, 59.4288429, 10.4652703, -5.335
LOCAL POSITION, 1746710965403565, 38.043, -34.464, -5.335, 59.4288455, 10.4652738
GLOBAL_POSITION_INT, 1746710966.313601, 59.4288454, 10.4652734, -5.337
LOCAL POSITION, 1746710967924414, 38.069, -34.466, -5.337, 59.4288455, 10.4652742
GLOBAL_POSITION_INT, 1746710968.9728942, 59.4288462, 10.4652751, -5.335
LOCAL POSITION, 1746710970438063, 37.976, -34.659, -5.335, 59.4288437, 10.4652726
GLOBAL_POSITION_INT, 1746710971.3121464, 59.4288445, 10.4652737, -5.340
LOCAL POSITION, 1746710972955528, 38.025, -34.682, -5.340, 59.4288435, 10.4652735
GLOBAL_POSITION_INT, 1746710973.642094, 59.4288435, 10.4652736, -5.333
LOCAL POSITION, 1746710975473022, 37.883, -34.874, -5.333, 59.4288418, 10.4652709
GLOBAL_POSITION_INT, 1746710976.3018913, 59.4288415, 10.4652714, -5.332
LOCAL POSITION, 1746710977989850, 38.049, -34.700, -5.332, 59.4288433, 10.4652739
GLOBAL_POSITION_INT, 1746710978.961794, 59.4288423, 10.4652730, -5.339
LOCAL POSITION, 1746710980515277, 38.217, -34.488, -5.339, 59.4288452, 10.4652769
GLOBAL_POSITION_INT, 1746710981.3020182, 59.4288446, 10.4652763, -5.335
LOCAL POSITION, 1746710983035729, 38.186, -34.539, -5.335, 59.4288448, 10.4652763
GLOBAL_POSITION_INT, 1746710983.6321683, 59.4288452, 10.4652770, -5.337
LOCAL POSITION, 1746710985549299, 38.039, -34.706, -5.337, 59.4288433, 10.4652737
GLOBAL_POSITION_INT, 1746710985.9620552, 59.4288445, 10.4652753, -5.335
LOCAL POSITION, 1746710988063830, 38.148, -34.519, -5.335, 59.4288450, 10.4652756
GLOBAL_POSITION_INT, 1746710987.962072, 59.4288441, 10.4652734, -5.339
LOCAL POSITION, 1746710990578470, 37.898, -34.887, -5.339, 59.4288417, 10.4652712
GLOBAL_POSITION_INT, 1746710990.622512, 59.4288453, 10.4652738, -5.338
LOCAL POSITION, 1746710993098232, 38.034, -34.658, -5.338, 59.4288437, 10.4652736
GLOBAL_POSITION_INT, 1746710992.9518425, 59.4288416, 10.4652688, -5.334
LOCAL POSITION, 1746710995618834, 37.951, -34.682, -5.334, 59.4288435, 10.4652722
GLOBAL_POSITION_INT, 1746710995.6141272, 59.4288430, 10.4652708, -5.338
LOCAL POSITION, 1746710998134432, 37.852, -34.870, -5.338, 59.4288418, 10.4652704
GLOBAL_POSITION_INT, 1746710998.2818122, 59.4288431, 10.4652706, -5.338
LOCAL POSITION, 1746711000651252, 38.078, -34.498, -5.338, 59.4288452, 10.4652744
GLOBAL_POSITION_INT, 1746711000.6118062, 59.4288417, 10.4652693, -5.337
LOCAL POSITION, 1746711003168675, 37.975, -34.684, -5.337, 59.4288435, 10.4652726
GLOBAL_POSITION_INT, 1746711002.941805, 59.4288453, 10.4652742, -5.338
LOCAL POSITION, 1746711005685244, 38.106, -34.498, -5.338, 59.4288452, 10.4652749
GLOBAL_POSITION_INT, 1746711004.942095, 59.4288442, 10.4652734, -5.333
LOCAL POSITION, 1746711008202404, 38.036, -34.648, -5.333, 59.4288438, 10.4652737
GLOBAL_POSITION_INT, 1746711007.6021245, 59.4288455, 10.4652759, -5.335
LOCAL POSITION, 1746711010721171, 38.161, -34.524, -5.335, 59.4288449, 10.4652759
GLOBAL_POSITION_INT, 1746711010.271973, 59.4288442, 10.4652749, -5.337
LOCAL POSITION, 1746711013234837, 37.998, -34.918, -5.337, 59.4288414, 10.4652730
GLOBAL_POSITION_INT, 1746711012.6018581, 59.4288447, 10.4652765, -5.337
LOCAL POSITION, 1746711015747256, 38.037, -34.929, -5.337, 59.4288413, 10.4652737
GLOBAL_POSITION_INT, 1746711014.9317605, 59.4288408, 10.4652735, -5.339
LOCAL POSITION, 1746711018264987, 38.325, -34.571, -5.339, 59.4288445, 10.4652788
GLOBAL_POSITION_INT, 1746711016.9321353, 59.4288401, 10.4652733, -5.342
LOCAL POSITION, 1746711020782512, 38.377, -34.528, -5.342, 59.4288449, 10.4652797
GLOBAL_POSITION_INT, 1746711019.591941, 59.4288434, 10.4652783, -5.338
LOCAL POSITION, 1746711023297388, 38.236, -34.749, -5.338, 59.4288429, 10.4652772
GLOBAL_POSITION_INT, 1746711022.2522814, 59.4288451, 10.4652808, -5.338
LOCAL POSITION, 1746711025813665, 38.347, -34.540, -5.338, 59.4288448, 10.4652792
GLOBAL_POSITION_INT, 1746711024.592133, 59.4288436, 10.4652783, -5.338
LOCAL POSITION, 1746711028331783, 38.176, -34.745, -5.338, 59.4288429, 10.4652761
GLOBAL_POSITION_INT, 1746711026.9218237, 59.4288446, 10.4652789, -5.337
LOCAL POSITION, 1746711030844062, 38.028, -34.927, -5.337, 59.4288413, 10.4652735
GLOBAL_POSITION_INT, 1746711029.5818071, 59.4288433, 10.4652761, -5.333
LOCAL POSITION, 1746711033360612, 38.135, -34.703, -5.333, 59.4288433, 10.4652754
GLOBAL_POSITION_INT, 1746711031.5821514, 59.4288415, 10.4652733, -5.342
LOCAL POSITION, 1746711035875092, 37.972, -34.894, -5.342, 59.4288416, 10.4652725
GLOBAL_POSITION_INT, 1746711033.9122653, 59.4288423, 10.4652737, -5.338
LOCAL POSITION, 1746711038389135, 37.971, -34.914, -5.338, 59.4288414, 10.4652725
GLOBAL_POSITION_INT, 1746711036.242029, 59.4288420, 10.4652726, -5.340
LOCAL POSITION, 1746711040907046, 37.981, -34.901, -5.340, 59.4288415, 10.4652727
GLOBAL_POSITION_INT, 1746711038.902104, 59.4288413, 10.4652718, -5.342
LOCAL POSITION, 1746711043420214, 37.985, -34.930, -5.342, 59.4288413, 10.4652727
GLOBAL_POSITION_INT, 1746711041.242049, 59.4288411, 10.4652719, -5.342
LOCAL POSITION, 1746711045937181, 38.248, -34.535, -5.342, 59.4288448, 10.4652774
GLOBAL_POSITION_INT, 1746711043.571851, 59.4288412, 10.4652725, -5.339
LOCAL POSITION, 1746711048449791, 38.056, -34.943, -5.339, 59.4288412, 10.4652740
GLOBAL_POSITION_INT, 1746711045.9020963, 59.4288411, 10.4652731, -5.338
LOCAL POSITION, 1746711050964269, 38.051, -34.931, -5.338, 59.4288413, 10.4652739
GLOBAL_POSITION_INT, 1746711048.2318168, 59.4288452, 10.4652791, -5.340
LOCAL POSITION, 1746711053480239, 38.034, -34.941, -5.340, 59.4288412, 10.4652736
GLOBAL_POSITION_INT, 1746711050.5618103, 59.4288418, 10.4652761, -5.338
LOCAL POSITION, 1746711056002024, 38.103, -34.734, -5.338, 59.4288430, 10.4652748
GLOBAL_POSITION_INT, 1746711052.891677, 59.4288406, 10.4652745, -5.338
LOCAL POSITION, 1746711058540201, 38.090, -34.725, -5.338, 59.4288431, 10.4652746
GLOBAL_POSITION_INT, 1746711055.2234719, 59.4288404, 10.4652735, -5.338
LOCAL POSITION, 1746711061055836, 37.975, -34.923, -5.338, 59.4288413, 10.4652726
GLOBAL_POSITION_INT, 1746711057.8921082, 59.4288426, 10.4652746, -5.337
LOCAL POSITION, 1746711063580526, 38.215, -34.524, -5.337, 59.4288449, 10.4652768
GLOBAL_POSITION_INT, 1746711060.2225654, 59.4288434, 10.4652748, -5.338
LOCAL POSITION, 1746711066095297, 38.161, -34.503, -5.338, 59.4288451, 10.4652759
GLOBAL_POSITION_INT, 1746711062.552448, 59.4288417, 10.4652727, -5.338
LOCAL POSITION, 1746711068620021, 38.005, -34.679, -5.338, 59.4288435, 10.4652731
GLOBAL_POSITION_INT, 1746711065.2121277, 59.4288448, 10.4652765, -5.340
LOCAL POSITION, 1746711071142594, 37.882, -34.879, -5.340, 59.4288417, 10.4652709
GLOBAL_POSITION_INT, 1746711067.5420902, 59.4288458, 10.4652765, -5.337
LOCAL POSITION, 1746711073656467, 37.839, -34.848, -5.337, 59.4288420, 10.4652702
GLOBAL_POSITION_INT, 1746711069.872625, 59.4288444, 10.4652735, -5.342
LOCAL POSITION, 1746711076176453, 37.942, -34.671, -5.342, 59.4288436, 10.4652720
GLOBAL_POSITION_INT, 1746711072.5420506, 59.4288419, 10.4652699, -5.339
LOCAL POSITION, 1746711078687060, 37.844, -34.895, -5.339, 59.4288416, 10.4652703
GLOBAL_POSITION_INT, 1746711075.2018125, 59.4288416, 10.4652682, -5.342
LOCAL POSITION, 1746711081198028, 37.891, -34.897, -5.342, 59.4288416, 10.4652711
GLOBAL_POSITION_INT, 1746711077.2020807, 59.4288431, 10.4652705, -5.340
LOCAL POSITION, 1746711083710268, 37.952, -34.897, -5.340, 59.4288416, 10.4652722
GLOBAL_POSITION_INT, 1746711079.2021174, 59.4288422, 10.4652700, -5.340
LOCAL POSITION, 1746711086225770, 38.117, -34.709, -5.340, 59.4288433, 10.4652751
GLOBAL_POSITION_INT, 1746711081.8618119, 59.4288415, 10.4652706, -5.340
LOCAL POSITION, 1746711088738178, 38.051, -34.919, -5.340, 59.4288414, 10.4652739
GLOBAL_POSITION_INT, 1746711083.8621993, 59.4288413, 10.4652713, -5.339
LOCAL POSITION, 1746711091252076, 38.096, -34.942, -5.339, 59.4288412, 10.4652747
GLOBAL_POSITION_INT, 1746711086.1921122, 59.4288413, 10.4652729, -5.339
LOCAL POSITION, 1746711093765482, 38.364, -34.547, -5.339, 59.4288447, 10.4652795
GLOBAL_POSITION_INT, 1746711088.5229485, 59.4288435, 10.4652767, -5.340
LOCAL POSITION, 1746711096281517, 38.166, -34.923, -5.340, 59.4288413, 10.4652760
GLOBAL_POSITION_INT, 1746711090.8517723, 59.4288417, 10.4652757, -5.340
LOCAL POSITION, 1746711098799097, 38.336, -34.752, -5.340, 59.4288429, 10.4652790
GLOBAL_POSITION_INT, 1746711092.8521512, 59.4288409, 10.4652754, -5.340
LOCAL POSITION, 1746711101315037, 38.415, -34.586, -5.340, 59.4288444, 10.4652803
GLOBAL_POSITION_INT, 1746711095.1818316, 59.4288444, 10.4652797, -5.340
LOCAL POSITION, 1746711103830455, 38.057, -34.904, -5.340, 59.4288415, 10.4652740
GLOBAL_POSITION_INT, 1746711097.5118053, 59.4288420, 10.4652771, -5.340
LOCAL POSITION, 1746711106345696, 38.143, -34.731, -5.340, 59.4288431, 10.4652755
GLOBAL_POSITION_INT, 1746711099.8424742, 59.4288425, 10.4652787, -5.339
LOCAL POSITION, 1746711108860482, 37.979, -34.899, -5.339, 59.4288416, 10.4652726
GLOBAL_POSITION_INT, 1746711102.5120869, 59.4288442, 10.4652805, -5.342
LOCAL POSITION, 1746711111375620, 37.892, -34.850, -5.342, 59.4288420, 10.4652711
GLOBAL_POSITION_INT, 1746711105.172456, 59.4288421, 10.4652746, -5.339
LOCAL POSITION, 1746711113896587, 38.031, -34.470, -5.339, 59.4288454, 10.4652736
GLOBAL_POSITION_INT, 1746711107.5120404, 59.4288428, 10.4652744, -5.340
LOCAL POSITION, 1746711116410405, 37.773, -34.836, -5.340, 59.4288421, 10.4652690
GLOBAL_POSITION_INT, 1746711109.8320556, 59.4288419, 10.4652722, -5.339
LOCAL POSITION, 1746711118928042, 37.712, -34.836, -5.339, 59.4288421, 10.4652679
GLOBAL_POSITION_INT, 1746711112.1621454, 59.4288419, 10.4652707, -5.338
LOCAL POSITION, 1746711121441583, 37.903, -34.437, -5.338, 59.4288457, 10.4652713
GLOBAL_POSITION_INT, 1746711114.512117, 59.4288447, 10.4652723, -5.342
LOCAL POSITION, 1746711123954791, 37.703, -34.833, -5.342, 59.4288421, 10.4652678
GLOBAL_POSITION_INT, 1746711116.8319929, 59.4288442, 10.4652707, -5.338
LOCAL POSITION, 1746711126467044, 37.794, -34.648, -5.338, 59.4288438, 10.4652694
GLOBAL_POSITION_INT, 1746711119.1619215, 59.4288431, 10.4652686, -5.343
LOCAL POSITION, 1746711128983998, 37.707, -34.847, -5.343, 59.4288420, 10.4652678
GLOBAL_POSITION_INT, 1746711121.4925792, 59.4288426, 10.4652673, -5.344
LOCAL POSITION, 1746711131508255, 37.818, -34.648, -5.344, 59.4288438, 10.4652698
GLOBAL_POSITION_INT, 1746711123.4927692, 59.4288460, 10.4652711, -5.338
LOCAL POSITION, 1746711134026998, 37.753, -34.828, -5.338, 59.4288422, 10.4652687
GLOBAL_POSITION_INT, 1746711125.822293, 59.4288428, 10.4652686, -5.338
LOCAL POSITION, 1746711136544185, 37.773, -34.860, -5.338, 59.4288419, 10.4652690
GLOBAL_POSITION_INT, 1746711128.4818046, 59.4288433, 10.4652696, -5.343
LOCAL POSITION, 1746711139060202, 37.944, -34.621, -5.343, 59.4288441, 10.4652720
GLOBAL_POSITION_INT, 1746711130.8121648, 59.4288415, 10.4652683, -5.340
LOCAL POSITION, 1746711141580483, 37.986, -34.687, -5.340, 59.4288435, 10.4652728
GLOBAL_POSITION_INT, 1746711133.1418052, 59.4288432, 10.4652699, -5.340
LOCAL POSITION, 1746711144096201, 38.116, -34.516, -5.340, 59.4288450, 10.4652751
GLOBAL_POSITION_INT, 1746711135.8121498, 59.4288421, 10.4652691, -5.342
LOCAL POSITION, 1746711146613000, 38.048, -34.723, -5.342, 59.4288431, 10.4652739
GLOBAL_POSITION_INT, 1746711138.1421142, 59.4288417, 10.4652691, -5.344
LOCAL POSITION, 1746711149127498, 37.939, -34.901, -5.344, 59.4288415, 10.4652719
GLOBAL_POSITION_INT, 1746711140.8021698, 59.4288439, 10.4652723, -5.340
LOCAL POSITION, 1746711151649328, 38.051, -34.715, -5.340, 59.4288432, 10.4652739
GLOBAL_POSITION_INT, 1746711143.4718094, 59.4288440, 10.4652738, -5.338
LOCAL POSITION, 1746711154164471, 38.065, -34.723, -5.338, 59.4288431, 10.4652742
GLOBAL_POSITION_INT, 1746711145.8018918, 59.4288454, 10.4652758, -5.335
LOCAL POSITION, 1746711156680468, 38.065, -34.709, -5.335, 59.4288433, 10.4652742
GLOBAL_POSITION_INT, 1746711148.1321747, 59.4288438, 10.4652743, -5.342
LOCAL POSITION, 1746711159196085, 38.195, -34.469, -5.342, 59.4288454, 10.4652765
GLOBAL_POSITION_INT, 1746711150.46183, 59.4288415, 10.4652713, -5.335
LOCAL POSITION, 1746711161710616, 37.964, -34.901, -5.335, 59.4288415, 10.4652724
GLOBAL_POSITION_INT, 1746711152.46223, 59.4288425, 10.4652723, -5.338
LOCAL POSITION, 1746711164230320, 38.131, -34.518, -5.338, 59.4288450, 10.4652753
GLOBAL_POSITION_INT, 1746711155.1226358, 59.4288430, 10.4652730, -5.340
LOCAL POSITION, 1746711166744006, 37.907, -34.898, -5.340, 59.4288416, 10.4652714
GLOBAL_POSITION_INT, 1746711157.4522808, 59.4288433, 10.4652732, -5.342
LOCAL POSITION, 1746711169261764, 38.006, -34.675, -5.342, 59.4288436, 10.4652731
GLOBAL_POSITION_INT, 1746711160.122016, 59.4288454, 10.4652754, -5.342
LOCAL POSITION, 1746711171786167, 37.974, -34.696, -5.342, 59.4288434, 10.4652725
GLOBAL_POSITION_INT, 1746711162.4518118, 59.4288428, 10.4652729, -5.342
LOCAL POSITION, 1746711174300881, 37.841, -34.877, -5.342, 59.4288418, 10.4652702
GLOBAL_POSITION_INT, 1746711164.781691, 59.4288439, 10.4652739, -5.339
LOCAL POSITION, 1746711176819311, 37.912, -34.638, -5.339, 59.4288439, 10.4652715
GLOBAL_POSITION_INT, 1746711166.782083, 59.4288443, 10.4652739, -5.344
LOCAL POSITION, 1746711179338265, 38.039, -34.498, -5.344, 59.4288452, 10.4652737
GLOBAL_POSITION_INT, 1746711169.4418156, 59.4288416, 10.4652709, -5.343
LOCAL POSITION, 1746711181853353, 38.022, -34.489, -5.343, 59.4288452, 10.4652734
GLOBAL_POSITION_INT, 1746711171.7757509, 59.4288425, 10.4652717, -5.338
LOCAL POSITION, 1746711184368697, 37.814, -34.849, -5.338, 59.4288420, 10.4652697
GLOBAL_POSITION_INT, 1746711174.102075, 59.4288430, 10.4652720, -5.339
LOCAL POSITION, 1746711186881623, 37.903, -34.658, -5.339, 59.4288437, 10.4652713
GLOBAL_POSITION_INT, 1746711176.4319756, 59.4288415, 10.4652696, -5.343
LOCAL POSITION, 1746711189396129, 37.880, -34.883, -5.343, 59.4288417, 10.4652709
GLOBAL_POSITION_INT, 1746711179.1020687, 59.4288438, 10.4652707, -5.342
LOCAL POSITION, 1746711191918250, 38.145, -34.502, -5.342, 59.4288451, 10.4652756
GLOBAL_POSITION_INT, 1746711181.4317877, 59.4288459, 10.4652741, -5.339
LOCAL POSITION, 1746711194437838, 37.952, -34.911, -5.339, 59.4288414, 10.4652722
GLOBAL_POSITION_INT, 1746711183.432166, 59.4288461, 10.4652743, -5.342
LOCAL POSITION, 1746711196955058, 38.095, -34.696, -5.342, 59.4288434, 10.4652747
GLOBAL_POSITION_INT, 1746711185.7621036, 59.4288426, 10.4652704, -5.343
LOCAL POSITION, 1746711199469861, 37.961, -34.904, -5.343, 59.4288415, 10.4652723
GLOBAL_POSITION_INT, 1746711188.092392, 59.4288431, 10.4652706, -5.342
LOCAL POSITION, 1746711201992405, 38.077, -34.663, -5.342, 59.4288437, 10.4652744
GLOBAL_POSITION_INT, 1746711190.752079, 59.4288413, 10.4652703, -5.342
LOCAL POSITION, 1746711204516220, 38.068, -34.716, -5.342, 59.4288432, 10.4652742
GLOBAL_POSITION_INT, 1746711193.4220688, 59.4288445, 10.4652752, -5.342
LOCAL POSITION, 1746711207034870, 38.053, -34.707, -5.342, 59.4288433, 10.4652740
GLOBAL_POSITION_INT, 1746711195.7520945, 59.4288420, 10.4652731, -5.342
LOCAL POSITION, 1746711209549207, 38.022, -34.707, -5.342, 59.4288433, 10.4652734
GLOBAL_POSITION_INT, 1746711198.4131768, 59.4288431, 10.4652747, -5.338
LOCAL POSITION, 1746711212066956, 38.007, -34.708, -5.338, 59.4288433, 10.4652731
GLOBAL_POSITION_INT, 1746711200.742134, 59.4288419, 10.4652726, -5.340
LOCAL POSITION, 1746711214583032, 38.110, -34.506, -5.340, 59.4288451, 10.4652750
GLOBAL_POSITION_INT, 1746711203.0727618, 59.4288434, 10.4652737, -5.344
LOCAL POSITION, 1746711217101371, 38.018, -34.685, -5.344, 59.4288435, 10.4652733
GLOBAL_POSITION_INT, 1746711205.7418258, 59.4288437, 10.4652740, -5.342
LOCAL POSITION, 1746711219617053, 38.142, -34.509, -5.342, 59.4288451, 10.4652755
GLOBAL_POSITION_INT, 1746711207.7421186, 59.4288436, 10.4652739, -5.342
LOCAL POSITION, 1746711222132289, 37.886, -34.865, -5.342, 59.4288419, 10.4652710
GLOBAL_POSITION_INT, 1746711210.07215, 59.4288436, 10.4652733, -5.342
LOCAL POSITION, 1746711224646384, 38.148, -34.508, -5.342, 59.4288451, 10.4652756
GLOBAL_POSITION_INT, 1746711212.731881, 59.4288435, 10.4652727, -5.343
LOCAL POSITION, 1746711227160277, 38.029, -34.659, -5.343, 59.4288437, 10.4652735
GLOBAL_POSITION_INT, 1746711215.3920534, 59.4288449, 10.4652740, -5.342
LOCAL POSITION, 1746711229684632, 38.180, -34.499, -5.342, 59.4288451, 10.4652762
GLOBAL_POSITION_INT, 1746711218.061818, 59.4288441, 10.4652733, -5.350
LOCAL POSITION, 1746711232200377, 37.958, -34.932, -5.350, 59.4288413, 10.4652723
GLOBAL_POSITION_INT, 1746711220.7229474, 59.4288450, 10.4652750, -5.345
LOCAL POSITION, 1746711234725010, 38.139, -34.686, -5.345, 59.4288435, 10.4652755
GLOBAL_POSITION_INT, 1746711223.3917592, 59.4288423, 10.4652713, -5.340
LOCAL POSITION, 1746711237240321, 38.275, -34.513, -5.340, 59.4288450, 10.4652779
GLOBAL_POSITION_INT, 1746711225.7222314, 59.4288444, 10.4652746, -5.340
LOCAL POSITION, 1746711239754696, 38.031, -34.916, -5.340, 59.4288414, 10.4652736
GLOBAL_POSITION_INT, 1746711228.0518124, 59.4288441, 10.4652740, -5.344
LOCAL POSITION, 1746711242268113, 38.292, -34.554, -5.344, 59.4288447, 10.4652782
GLOBAL_POSITION_INT, 1746711230.0523262, 59.4288448, 10.4652754, -5.344
LOCAL POSITION, 1746711244787510, 38.096, -34.937, -5.344, 59.4288412, 10.4652747
GLOBAL_POSITION_INT, 1746711232.3818088, 59.4288443, 10.4652757, -5.345
LOCAL POSITION, 1746711247301362, 38.165, -34.740, -5.345, 59.4288430, 10.4652759
GLOBAL_POSITION_INT, 1746711234.7140496, 59.4288410, 10.4652731, -5.342
LOCAL POSITION, 1746711249814343, 38.021, -34.915, -5.342, 59.4288414, 10.4652734
GLOBAL_POSITION_INT, 1746711237.042033, 59.4288394, 10.4652731, -5.349
LOCAL POSITION, 1746711252332803, 38.134, -34.689, -5.349, 59.4288434, 10.4652754
GLOBAL_POSITION_INT, 1746711239.0421786, 59.4288457, 10.4652791, -5.342
LOCAL POSITION, 1746711254849520, 38.267, -34.523, -5.342, 59.4288449, 10.4652777
GLOBAL_POSITION_INT, 1746711241.3722045, 59.4288424, 10.4652751, -5.345
LOCAL POSITION, 1746711257366438, 38.173, -34.695, -5.345, 59.4288434, 10.4652761
GLOBAL_POSITION_INT, 1746711243.702364, 59.4288442, 10.4652775, -5.343
LOCAL POSITION, 1746711259883278, 38.029, -34.935, -5.343, 59.4288412, 10.4652735
GLOBAL_POSITION_INT, 1746711246.3618343, 59.4288413, 10.4652746, -5.347
LOCAL POSITION, 1746711262395437, 38.038, -34.928, -5.347, 59.4288413, 10.4652737
GLOBAL_POSITION_INT, 1746711248.692224, 59.4288423, 10.4652749, -5.347
LOCAL POSITION, 1746711264910316, 38.153, -34.746, -5.347, 59.4288429, 10.4652757
GLOBAL_POSITION_INT, 1746711251.3621886, 59.4288411, 10.4652724, -5.344
LOCAL POSITION, 1746711267428238, 38.139, -34.686, -5.344, 59.4288435, 10.4652755
GLOBAL_POSITION_INT, 1746711253.6921701, 59.4288430, 10.4652740, -5.342
LOCAL POSITION, 1746711269942991, 38.224, -34.463, -5.342, 59.4288455, 10.4652770
GLOBAL_POSITION_INT, 1746711256.0226548, 59.4288451, 10.4652771, -5.342
LOCAL POSITION, 1746711272457386, 38.057, -34.665, -5.342, 59.4288437, 10.4652740
GLOBAL_POSITION_INT, 1746711258.6820576, 59.4288441, 10.4652766, -5.345
LOCAL POSITION, 1746711274976718, 38.036, -34.708, -5.345, 59.4288433, 10.4652737
GLOBAL_POSITION_INT, 1746711261.0220644, 59.4288415, 10.4652739, -5.347
LOCAL POSITION, 1746711277499825, 38.048, -34.711, -5.347, 59.4288432, 10.4652739
GLOBAL_POSITION_INT, 1746711263.6825125, 59.4288406, 10.4652731, -5.347
LOCAL POSITION, 1746711280026458, 38.013, -34.685, -5.347, 59.4288435, 10.4652733
GLOBAL_POSITION_INT, 1746711266.0149786, 59.4288423, 10.4652751, -5.342
LOCAL POSITION, 1746711282539755, 38.030, -34.666, -5.342, 59.4288437, 10.4652735
GLOBAL_POSITION_INT, 1746711268.3420424, 59.4288434, 10.4652756, -5.343
LOCAL POSITION, 1746711285055125, 38.118, -34.494, -5.343, 59.4288452, 10.4652751
GLOBAL_POSITION_INT, 1746711270.672671, 59.4288454, 10.4652770, -5.349
LOCAL POSITION, 1746711287570420, 37.971, -34.677, -5.349, 59.4288436, 10.4652725
GLOBAL_POSITION_INT, 1746711273.3418293, 59.4288445, 10.4652750, -5.342
LOCAL POSITION, 1746711290086174, 37.839, -34.907, -5.342, 59.4288415, 10.4652702
GLOBAL_POSITION_INT, 1746711275.6720688, 59.4288435, 10.4652738, -5.342
LOCAL POSITION, 1746711292599439, 37.989, -34.708, -5.342, 59.4288433, 10.4652728
GLOBAL_POSITION_INT, 1746711278.006147, 59.4288430, 10.4652735, -5.342
LOCAL POSITION, 1746711295113869, 37.981, -34.703, -5.342, 59.4288433, 10.4652727
GLOBAL_POSITION_INT, 1746711280.332335, 59.4288427, 10.4652732, -5.342
LOCAL POSITION, 1746711297631682, 38.117, -34.505, -5.342, 59.4288451, 10.4652751
GLOBAL_POSITION_INT, 1746711283.005389, 59.4288432, 10.4652732, -5.345
LOCAL POSITION, 1746711300147230, 37.998, -34.703, -5.345, 59.4288433, 10.4652730
GLOBAL_POSITION_INT, 1746711285.0067146, 59.4288430, 10.4652731, -5.343
LOCAL POSITION, 1746711302663662, 38.070, -34.697, -5.343, 59.4288434, 10.4652743
GLOBAL_POSITION_INT, 1746711287.6617627, 59.4288448, 10.4652750, -5.342
LOCAL POSITION, 1746711305181789, 37.958, -34.874, -5.342, 59.4288418, 10.4652723
GLOBAL_POSITION_INT, 1746711290.322111, 59.4288424, 10.4652715, -5.344
LOCAL POSITION, 1746711307695235, 38.149, -34.713, -5.344, 59.4288432, 10.4652756
